{
"type": "FeatureCollection",
"name": "data",
"crs": { "type": "name", "properties": { "name": "urn:ogc:def:crs:OGC:1.3:CRS84" } },
"features": [
{ "type": "Feature", "properties": { "Post": "<a href=\"https:\/\/havemapswill.travel\/blog\/sabah\/\">Sabah<\/a>", "Place": "Sabah, Malaysia" }, "geometry": { "type": "Point", "coordinates": [ 116.558824, 6.076337 ] } },
{ "type": "Feature", "properties": { "Post": "<a href=\"https:\/\/havemapswill.travel\/blog\/empty-quarter\/\">The Empty Quarter<\/a>", "Place": "Liwa, United Arab Emirates" }, "geometry": { "type": "Point", "coordinates": [ 53.924234, 22.883823 ] } },
{ "type": "Feature", "properties": { "Post": "<a href=\"https:\/\/havemapswill.travel\/blog\/hagia-sophia\/\">Hagia Sophia<\/a><br><a href=\"https:\/\/havemapswill.travel\/blog\/karaköy\/\">Karaköy<\/a>", "Place": "Istanbul, Turkey" }, "geometry": { "type": "Point", "coordinates": [ 28.980186, 41.00864 ] } },
{ "type": "Feature", "properties": { "Post": "<a href=\"https:\/\/havemapswill.travel\/blog\/darling-harbour\/\">Darling Harbor<\/a>", "Place": "Sydney, Australia" }, "geometry": { "type": "Point", "coordinates": [ 151.2093, -33.8688 ] } },
{ "type": "Feature", "properties": { "Post": "<a href=\"https:\/\/havemapswill.travel\/blog\/darvaza\/\">Darvaza<\/a>", "Place": "Darvaza, Turkmenistan" }, "geometry": { "type": "Point", "coordinates": [ 58.439743, 40.252652 ] } },
{ "type": "Feature", "properties": { "Post": "<a href=\"https:\/\/havemapswill.travel\/blog\/mirissa\/\">Mirissa<\/a>", "Place": "Mirissa, Sri Lanka" }, "geometry": { "type": "Point", "coordinates": [ 80.463566, 5.951411 ] } },
{ "type": "Feature", "properties": { "Post": "<a href=\"https:\/\/havemapswill.travel\/blog\/piazzale-michelangelo\/\">Piazzale Michelangelo<\/a>", "Place": "Florence, Italy" }, "geometry": { "type": "Point", "coordinates": [ 11.254005, 43.771692 ] } },
{ "type": "Feature", "properties": { "Post": "<a href=\"https:\/\/havemapswill.travel\/blog\/stone-wedding\/\">The Stone Wedding<\/a><br><a href=\"https:\/\/havemapswill.travel\/blog\/rhodope-mountains\/\">Rhodope Mountains<\/a>", "Place": "Kardzhali, Bulgaria" }, "geometry": { "type": "Point", "coordinates": [ 25.378149, 41.63454 ] } },
{ "type": "Feature", "properties": { "Post": "<a href=\"https:\/\/havemapswill.travel\/blog\/serowe\/\">Serowe<\/a>", "Place": "Serowe, Botswana" }, "geometry": { "type": "Point", "coordinates": [ 26.713597, -22.403465 ] } },
{ "type": "Feature", "properties": { "Post": "<a href=\"https:\/\/havemapswill.travel\/blog\/al-khazneh\/\">Al-Khazneh<\/a>", "Place": "Petra, Jordan" }, "geometry": { "type": "Point", "coordinates": [ 35.445693, 30.329121 ] } },
{ "type": "Feature", "properties": { "Post": "<a href=\"https:\/\/havemapswill.travel\/blog\/lexington\/\">Lexington<\/a>", "Place": "Lexington, Kentucky" }, "geometry": { "type": "Point", "coordinates": [ -84.502625, 38.050254 ] } },
{ "type": "Feature", "properties": { "Post": "<a href=\"https:\/\/havemapswill.travel\/blog\/oslo\/\">Oslo<\/a>", "Place": "Oslo, Norway" }, "geometry": { "type": "Point", "coordinates": [ 10.75396, 59.91385 ] } },
{ "type": "Feature", "properties": { "Post": "<a href=\"https:\/\/havemapswill.travel\/blog\/rugby\/\">Rugby<\/a>", "Place": "Rugby, Tennessee" }, "geometry": { "type": "Point", "coordinates": [ -84.700605, 36.3609 ] } },
{ "type": "Feature", "properties": { "Post": "<a href=\"https:\/\/havemapswill.travel\/blog\/jerusalem\/\">Jerusalem<\/a>", "Place": "Jerusalem" }, "geometry": { "type": "Point", "coordinates": [ 35.221362, 31.769158 ] } },
{ "type": "Feature", "properties": { "Post": "<a href=\"https:\/\/havemapswill.travel\/blog\/three-sisters\/\">Three Sisters<\/a>", "Place": "Blue Mountains, Australia" }, "geometry": { "type": "Point", "coordinates": [ 150.313313, -33.731733 ] } },
{ "type": "Feature", "properties": { "Post": "<a href=\"https:\/\/havemapswill.travel\/blog\/siem-reap\/\">Siem Reap<\/a>", "Place": "Siem Reap, Cambodia" }, "geometry": { "type": "Point", "coordinates": [ 103.86294, 13.367701 ] } },
{ "type": "Feature", "properties": { "Post": "<a href=\"https:\/\/havemapswill.travel\/blog\/ashgabat\/\">Ashgabat<\/a>", "Place": "Ashgabat, Turkmenistan" }, "geometry": { "type": "Point", "coordinates": [ 58.344355, 37.963749 ] } },
{ "type": "Feature", "properties": { "Post": "<a href=\"https:\/\/havemapswill.travel\/blog\/museum-of-books\/\">Museum of Books<\/a>", "Place": "Tbilisi, Georgia" }, "geometry": { "type": "Point", "coordinates": [ 44.81688, 41.717341 ] } },
{ "type": "Feature", "properties": { "Post": "<a href=\"https:\/\/havemapswill.travel\/blog\/planet-baobab\/\">Planet Baobab<\/a>", "Place": "Gweta, Botswana" }, "geometry": { "type": "Point", "coordinates": [ 25.252504, -20.21111 ] } },
{ "type": "Feature", "properties": { "Post": "<a href=\"https:\/\/havemapswill.travel\/blog\/paris\/\">Paris<\/a>", "Place": "Paris, France" }, "geometry": { "type": "Point", "coordinates": [ 2.347536, 48.858126 ] } },
{ "type": "Feature", "properties": { "Post": "<a href=\"https:\/\/havemapswill.travel\/blog\/antarctica\/\">Antarctica<\/a>", "Place": "Antarctica" }, "geometry": { "type": "Point", "coordinates": [ -64.268465, -66.346288 ] } }
]
}
