{
"type": "FeatureCollection",
"name": "data",
"crs": { "type": "name", "properties": { "name": "urn:ogc:def:crs:OGC:1.3:CRS84" } },
"features": [
{ "type": "Feature", "properties": { "Post": "<a href=\"https:\/\/havemaps.github.io\/jekyll\/update\/2020\/09\/21\/sabah.html\" target=\"_blank\">Sabah<\/a>", "Place": "Sabah, Malaysia" }, "geometry": { "type": "Point", "coordinates": [ 116.558824, 6.076337 ] } },
{ "type": "Feature", "properties": { "Post": "<a href=\"https:\/\/havemaps.github.io\/jekyll\/update\/2020\/09\/22\/empty-quarter.html\" target=\"_blank\">The Empty Quarter<\/a>", "Place": "Liwa, United Arab Emirates" }, "geometry": { "type": "Point", "coordinates": [ 53.924234, 22.883823 ] } },
{ "type": "Feature", "properties": { "Post": "<a href=\"https:\/\/havemaps.github.io\/jekyll\/update\/2020\/09\/23\/hagia-sophia.html\" target=\"_blank\">Hagia Sophia<\/a>", "Place": "Istanbul, Turkey" }, "geometry": { "type": "Point", "coordinates": [ 28.980186, 41.00864 ] } },
{ "type": "Feature", "properties": { "Post": "<a href=\"https:\/\/havemaps.github.io\/jekyll\/update\/2020\/09\/24\/darling-harbour.html\" target=\"_blank\">Darling Harbor<\/a>", "Place": "Sydney, Australia" }, "geometry": { "type": "Point", "coordinates": [ 151.2093, -33.8688 ] } },
{ "type": "Feature", "properties": { "Post": "<a href=\"https:\/\/havemaps.github.io\/jekyll\/update\/2020\/09\/25\/darvaza.html\" target=\"_blank\">Darvaza<\/a>", "Place": "Darvaza, Turkmenistan" }, "geometry": { "type": "Point", "coordinates": [ 58.439743, 40.252652 ] } },
{ "type": "Feature", "properties": { "Post": "<a href=\"https:\/\/havemaps.github.io\/jekyll\/update\/2020\/09\/26\/mirissa.html\" target=\"_blank\">Mirissa<\/a>", "Place": "Mirissa, Sri Lanka" }, "geometry": { "type": "Point", "coordinates": [ 80.463566, 5.951411 ] } },
{ "type": "Feature", "properties": { "Post": "<a href=\"https:\/\/havemaps.github.io\/jekyll\/update\/2020\/09\/27\/piazzale-michelangelo.html\" target=\"_blank\">Piazzale Michelangelo<\/a>", "Place": "Florence, Italy" }, "geometry": { "type": "Point", "coordinates": [ 11.254005, 43.771692 ] } },
{ "type": "Feature", "properties": { "Post": "<a href=\"https:\/\/havemaps.github.io\/jekyll\/update\/2020\/09\/28\/stone-wedding.html\" target=\"_blank\">The Stone Wedding<\/a>", "Place": "Kardzhali, Bulgaria" }, "geometry": { "type": "Point", "coordinates": [ 25.378149, 41.63454 ] } },
{ "type": "Feature", "properties": { "Post": "<a href=\"https:\/\/havemaps.github.io\/jekyll\/update\/2020\/09\/29\/serowe.html\" target=\"_blank\">Serowe<\/a>", "Place": "Serowe, Botswana" }, "geometry": { "type": "Point", "coordinates": [ 26.713597, -22.403465 ] } }
]
}
